{ "type": "FeatureCollection", "features": [
{ "type": "Feature", "properties": { "nome":"Antonina"}, "geometry": { "coordinates": [ -48.7558977372557 , -25.228429971052 ], "type": "Point" }, "id": 0 },
{ "type": "Feature", "properties": { "nome":"Araucária"}, "geometry": { "coordinates": [ -49.4075480748508 , -25.5555666550037 ], "type": "Point" }, "id": 1 },
{ "type": "Feature", "properties": { "nome":"Balsa Nova"}, "geometry": { "coordinates": [ -49.5837073291786 , -25.467065376194 ], "type": "Point" }, "id": 2 },
{ "type": "Feature", "properties": { "nome":"Bandeirantes"}, "geometry": { "coordinates": [ -50.3701031676873 , -23.1100459393498 ], "type": "Point" }, "id": 3 },
{ "type": "Feature", "properties": { "nome":"Campo Largo"}, "geometry": { "coordinates": [ -49.5686255264867 , -25.4614604130865 ], "type": "Point" }, "id": 4 },
{ "type": "Feature", "properties": { "nome":"Curitiba"}, "geometry": { "coordinates": [ -49.3366589306662 , -25.592419044131 ], "type": "Point" }, "id": 5 },
{ "type": "Feature", "properties": { "nome":"Fazenda Rio Grande"}, "geometry": { "coordinates": [ -49.2942281688042 , -25.6625833270892 ], "type": "Point" }, "id": 6 },
{ "type": "Feature", "properties": { "nome":"Foz do Iguaçu"}, "geometry": { "coordinates": [ -54.5547421349285 , -25.5384416905182 ], "type": "Point" }, "id": 7 },
{ "type": "Feature", "properties": { "nome":"Guaratuba"}, "geometry": { "coordinates": [ -48.5737847742304 , -25.8436202891889 ], "type": "Point" }, "id": 8 },
{ "type": "Feature", "properties": { "nome":"Jacarezinho"}, "geometry": { "coordinates": [ -49.9776503391958 , -23.1561012287067 ], "type": "Point" }, "id": 9 },
{ "type": "Feature", "properties": { "nome":"Joaquim Távora"}, "geometry": { "coordinates": [ -49.9222511950437 , -23.4975743575815 ], "type": "Point" }, "id": 10 },
{ "type": "Feature", "properties": { "nome":"Matelândia"}, "geometry": { "coordinates": [ -53.9836894905348 , -25.2411004197049 ], "type": "Point" }, "id": 11 },
{ "type": "Feature", "properties": { "nome":"Matinhos"}, "geometry": { "coordinates": [ -48.5173275570072 , -25.77879344221 ], "type": "Point" }, "id": 12 },
{ "type": "Feature", "properties": { "nome":"Medianeira"}, "geometry": { "coordinates": [ -54.0851713582828 , -25.277290987369 ], "type": "Point" }, "id": 13 },
{ "type": "Feature", "properties": { "nome":"Paranaguá"}, "geometry": { "coordinates": [ -48.5663587600968 , -25.5698432126176 ], "type": "Point" }, "id": 14 },
{ "type": "Feature", "properties": { "nome":"Piraquara"}, "geometry": { "coordinates": [ -49.1390858203267 , -25.4648178624915 ], "type": "Point" }, "id": 15 },
{ "type": "Feature", "properties": { "nome":"Ponta Grossa"}, "geometry": { "coordinates": [ -50.1418002699693 , -25.1776694038183 ], "type": "Point" }, "id": 16 },
{ "type": "Feature", "properties": { "nome":"Pontal do Paraná"}, "geometry": { "coordinates": [ -48.481692912251 , -25.7023126142376 ], "type": "Point" }, "id": 17 },
{ "type": "Feature", "properties": { "nome":"Quatiguá"}, "geometry": { "coordinates": [ -49.9157806446291 , -23.5672123278152 ], "type": "Point" }, "id": 18 },
{ "type": "Feature", "properties": { "nome":"Santo Antônio da Platina"}, "geometry": { "coordinates": [ -50.0747240053489 , -23.2924005832504 ], "type": "Point" }, "id": 19 },
{ "type": "Feature", "properties": { "nome":"São José dos Pinhais"}, "geometry": { "coordinates": [ -49.1601414400313 , -25.5909150507999 ], "type": "Point" }, "id": 20 },
{ "type": "Feature", "properties": { "nome":"Tomazina"}, "geometry": { "coordinates": [ -49.958123566004 , -23.7783412765817 ], "type": "Point" }, "id": 21 },
{ "type": "Feature", "properties": { "nome":"ATAPP-02"}, "geometry": { "coordinates": [ -52.0545127230284 , -23.1522554133613 ], "type": "Point" }, "id": 22 },
{ "type": "Feature", "properties": { "nome":"ANGPP-02"}, "geometry": { "coordinates": [ -51.9104133494591 , -23.1975898342947 ], "type": "Point" }, "id": 23 },
{ "type": "Feature", "properties": { "nome":"DVISE-05"}, "geometry": { "coordinates": [ -53.0589049020166 , -25.7512294494427 ], "type": "Point" }, "id": 24 },
{ "type": "Feature", "properties": { "nome":"JAMSE-02"}, "geometry": { "coordinates": [ -49.2398659879133 , -25.4687775318508 ], "type": "Point" }, "id": 25 },
{ "type": "Feature", "properties": { "nome":"JAMSE-03"}, "geometry": { "coordinates": [ -49.2214016193023 , -25.4923401923722 ], "type": "Point" }, "id": 26 },
{ "type": "Feature", "properties": { "nome":"PILSE-06"}, "geometry": { "coordinates": [ -49.2848866911552 , -25.3874906517504 ], "type": "Point" }, "id": 27 },
{ "type": "Feature", "properties": { "nome":"PTOSE-10"}, "geometry": { "coordinates": [ -52.6702019444486 , -26.2241194628498 ], "type": "Point" }, "id": 28 },
{ "type": "Feature", "properties": { "nome":"RBRPP-02"}, "geometry": { "coordinates": [ -51.3156338579047 , -24.3197124816862 ], "type": "Point" }, "id": 29 },
{ "type": "Feature", "properties": { "nome":"PTOSE-11"}, "geometry": { "coordinates": [ -52.673492587334 , -26.2469127333723 ], "type": "Point" }, "id": 30 },
{ "type": "Feature", "properties": { "nome":"FOZUD-07"}, "geometry": { "coordinates": [ -54.5780088654877 , -25.5385971909372 ], "type": "Point" }, "id": 31 },
{ "type": "Feature", "properties": { "nome":"PNASE-04"}, "geometry": { "coordinates": [ -53.8415467655797 , -24.2854508806167 ], "type": "Point" }, "id": 32 },
{ "type": "Feature", "properties": { "nome":"PTOSE-12"}, "geometry": { "coordinates": [ -52.6856066463703 , -26.2103721705369 ], "type": "Point" }, "id": 33 },
{ "type": "Feature", "properties": { "nome":"BCHSE-06"}, "geometry": { "coordinates": [ -49.2396817926738 , -25.3946883765554 ], "type": "Point" }, "id": 34 },
{ "type": "Feature", "properties": { "nome":"BCHSE-07"}, "geometry": { "coordinates": [ -49.2338441330667 , -25.3745890254673 ], "type": "Point" }, "id": 35 },
{ "type": "Feature", "properties": { "nome":"SATSE-05"}, "geometry": { "coordinates": [ -54.3997874672057 , -25.4371453971453 ], "type": "Point" }, "id": 36 },
{ "type": "Feature", "properties": { "nome":"BCHSE-08"}, "geometry": { "coordinates": [ -49.2195795429214 , -25.3889337367077 ], "type": "Point" }, "id": 37 },
{ "type": "Feature", "properties": { "nome":"BCHSE-09"}, "geometry": { "coordinates": [ -49.2454344988705 , -25.3818594575562 ], "type": "Point" }, "id": 38 },
{ "type": "Feature", "properties": { "nome":"JDAAG-02"}, "geometry": { "coordinates": [ -51.6429402013636 , -23.6016168022137 ], "type": "Point" }, "id": 39 },
{ "type": "Feature", "properties": { "nome":"PALSE-02"}, "geometry": { "coordinates": [ -50.0035037347478 , -25.4232573797428 ], "type": "Point" }, "id": 40 },
{ "type": "Feature", "properties": { "nome":"PRUSE-03"}, "geometry": { "coordinates": [ -50.9803088603016 , -25.2133628155168 ], "type": "Point" }, "id": 41 },
{ "type": "Feature", "properties": { "nome":"XAXSE-10"}, "geometry": { "coordinates": [ -49.2735545046726 , -25.4779912137486 ], "type": "Point" }, "id": 42 },
{ "type": "Feature", "properties": { "nome":"FENSE-02"}, "geometry": { "coordinates": [ -51.9780871984542 , -23.9166406701734 ], "type": "Point" }, "id": 43 },
{ "type": "Feature", "properties": { "nome":"IBUSE-02"}, "geometry": { "coordinates": [ -50.7553770362166 , -24.4470509088514 ], "type": "Point" }, "id": 44 },
{ "type": "Feature", "properties": { "nome":"SDN-01"}, "geometry": { "coordinates": [ -51.928242750375 , -23.4327388910059 ], "type": "Point" }, "id": 45 },
{ "type": "Feature", "properties": { "nome":"SDN-02"}, "geometry": { "coordinates": [ -51.9600322483329 , -23.4310424483138 ], "type": "Point" }, "id": 46 },
{ "type": "Feature", "properties": { "nome":"RVIAG-01"}, "geometry": { "coordinates": [ -52.0283279105052 , -25.8378708958115 ], "type": "Point" }, "id": 47 },
{ "type": "Feature", "properties": { "nome":"SVISE-02"}, "geometry": { "coordinates": [ -53.1939467169361 , -23.0035793762336 ], "type": "Point" }, "id": 48 },
{ "type": "Feature", "properties": { "nome":"ORVSE-03"}, "geometry": { "coordinates": [ -53.9044263434797 , -24.7728426380596 ], "type": "Point" }, "id": 49 },
{ "type": "Feature", "properties": { "nome":"VRESE-03"}, "geometry": { "coordinates": [ -52.9077646469167 , -25.8815131478227 ], "type": "Point" }, "id": 50 },
{ "type": "Feature", "properties": { "nome":"IGISE-05"}, "geometry": { "coordinates": [ -52.0644743385768 , -23.3729662305994 ], "type": "Point" }, "id": 51 },
{ "type": "Feature", "properties": { "nome":"FLAAG-02"}, "geometry": { "coordinates": [ -52.0818199887019 , -23.6142151444794 ], "type": "Point" }, "id": 52 },
{ "type": "Feature", "properties": { "nome":"ADGSE-11"}, "geometry": { "coordinates": [ -49.2495728826619 , -25.4079509146756 ], "type": "Point" }, "id": 53 },
{ "type": "Feature", "properties": { "nome":"ADGSE-12"}, "geometry": { "coordinates": [ -49.2380494604428 , -25.4157254377274 ], "type": "Point" }, "id": 54 },
{ "type": "Feature", "properties": { "nome":"COS-10"}, "geometry": { "coordinates": [ -49.3005473561076 , -25.4395239465655 ], "type": "Point" }, "id": 55 },
{ "type": "Feature", "properties": { "nome":"ADGSE-13"}, "geometry": { "coordinates": [ -49.2428587332826 , -25.4304921044166 ], "type": "Point" }, "id": 56 },
{ "type": "Feature", "properties": { "nome":"COS-11"}, "geometry": { "coordinates": [ -49.3404191085273 , -25.441061760632 ], "type": "Point" }, "id": 57 },
{ "type": "Feature", "properties": { "nome":"ADGSE-14"}, "geometry": { "coordinates": [ -49.2465274725166 , -25.4414750562764 ], "type": "Point" }, "id": 58 },
{ "type": "Feature", "properties": { "nome":"SGESE-02"}, "geometry": { "coordinates": [ -52.2919482223152 , -23.434706279241 ], "type": "Point" }, "id": 59 },
{ "type": "Feature", "properties": { "nome":"BALSE-01"}, "geometry": { "coordinates": [ -49.1602766308178 , -25.4019920518683 ], "type": "Point" }, "id": 60 },
{ "type": "Feature", "properties": { "nome":"BALSE-03"}, "geometry": { "coordinates": [ -49.2100310291956 , -25.4164470070646 ], "type": "Point" }, "id": 61 },
{ "type": "Feature", "properties": { "nome":"BALSE-04"}, "geometry": { "coordinates": [ -49.2053141589893 , -25.4005247981517 ], "type": "Point" }, "id": 62 },
{ "type": "Feature", "properties": { "nome":"STFSE-02"}, "geometry": { "coordinates": [ -49.3245573094793 , -25.3947825945715 ], "type": "Point" }, "id": 63 },
{ "type": "Feature", "properties": { "nome":"STFSE-03"}, "geometry": { "coordinates": [ -49.3366901551183 , -25.4203142113023 ], "type": "Point" }, "id": 64 },
{ "type": "Feature", "properties": { "nome":"STFSE-04"}, "geometry": { "coordinates": [ -49.3503852893455 , -25.4041664346595 ], "type": "Point" }, "id": 65 },
{ "type": "Feature", "properties": { "nome":"ORTSE-03"}, "geometry": { "coordinates": [ -50.9253936167226 , -24.2098980500051 ], "type": "Point" }, "id": 66 },
{ "type": "Feature", "properties": { "nome":"BSUSE-02"}, "geometry": { "coordinates": [ -51.7679036201425 , -23.7106035848157 ], "type": "Point" }, "id": 67 },
{ "type": "Feature", "properties": { "nome":"BCHSE-10"}, "geometry": { "coordinates": [ -49.256810879595 , -25.3872179079316 ], "type": "Point" }, "id": 68 },
{ "type": "Feature", "properties": { "nome":"ADGSE-10"}, "geometry": { "coordinates": [ -49.2621684160734 , -25.4129848596106 ], "type": "Point" }, "id": 69 },
{ "type": "Feature", "properties": { "nome":"TUPSE-02"}, "geometry": { "coordinates": [ -53.5134784547831 , -24.5852621413707 ], "type": "Point" }, "id": 70 },
{ "type": "Feature", "properties": { "nome":"QBRSE-63"}, "geometry": { "coordinates": [ -49.0977686639831 , -25.3851532568977 ], "type": "Point" }, "id": 71 },
{ "type": "Feature", "properties": { "nome":"UVRSE-02"}, "geometry": { "coordinates": [ -50.1615619545417 , -25.1151262269453 ], "type": "Point" }, "id": 72 },
{ "type": "Feature", "properties": { "nome":"QBRSE-64"}, "geometry": { "coordinates": [ -49.1039011628577 , -25.376957768869 ], "type": "Point" }, "id": 73 },
{ "type": "Feature", "properties": { "nome":"UVRSE-03"}, "geometry": { "coordinates": [ -50.1658374865905 , -25.0776606895054 ], "type": "Point" }, "id": 74 },
{ "type": "Feature", "properties": { "nome":"UVRSE-04"}, "geometry": { "coordinates": [ -50.1351891258492 , -25.0884165099814 ], "type": "Point" }, "id": 75 },
{ "type": "Feature", "properties": { "nome":"NVESE-02"}, "geometry": { "coordinates": [ -52.2007278054637 , -23.1795034660706 ], "type": "Point" }, "id": 76 },
{ "type": "Feature", "properties": { "nome":"SABSE-02"}, "geometry": { "coordinates": [ -51.54822509495 , -23.3226268343244 ], "type": "Point" }, "id": 77 },
{ "type": "Feature", "properties": { "nome":"SABSE-03"}, "geometry": { "coordinates": [ -51.5569783014822 , -23.3188484897718 ], "type": "Point" }, "id": 78 },
{ "type": "Feature", "properties": { "nome":"FDAPP-01"}, "geometry": { "coordinates": [ -51.953553838668 , -23.0872731476289 ], "type": "Point" }, "id": 79 },
{ "type": "Feature", "properties": { "nome":"VENAG-01"}, "geometry": { "coordinates": [ -50.2398785120509 , -24.2528233963592 ], "type": "Point" }, "id": 80 },
{ "type": "Feature", "properties": { "nome":"SPOAG-01"}, "geometry": { "coordinates": [ -50.5780108936961 , -23.9094492598713 ], "type": "Point" }, "id": 81 },
{ "type": "Feature", "properties": { "nome":"FBLUD-09"}, "geometry": { "coordinates": [ -53.0598310308592 , -26.0432873540045 ], "type": "Point" }, "id": 82 },
{ "type": "Feature", "properties": { "nome":"PGASE-05"}, "geometry": { "coordinates": [ -48.5151856164745 , -25.5206712774399 ], "type": "Point" }, "id": 83 },
{ "type": "Feature", "properties": { "nome":"PDOSE-04"}, "geometry": { "coordinates": [ -54.2274215695928 , -24.6271868010615 ], "type": "Point" }, "id": 84 },
{ "type": "Feature", "properties": { "nome":"PCBPP-02"}, "geometry": { "coordinates": [ -52.1547499836691 , -23.2771748475364 ], "type": "Point" }, "id": 85 },
{ "type": "Feature", "properties": { "nome":"SJSSE-02"}, "geometry": { "coordinates": [ -50.7395738141996 , -23.7209379090791 ], "type": "Point" }, "id": 86 },
{ "type": "Feature", "properties": { "nome":"PTGSE-02"}, "geometry": { "coordinates": [ -51.5831360721846 , -23.2340876881684 ], "type": "Point" }, "id": 87 },
{ "type": "Feature", "properties": { "nome":"QBRSE-61"}, "geometry": { "coordinates": [ -49.1003908588085 , -25.3814676822241 ], "type": "Point" }, "id": 88 },
{ "type": "Feature", "properties": { "nome":"QBRSE-62"}, "geometry": { "coordinates": [ -49.0965281673041 , -25.372418700259 ], "type": "Point" }, "id": 89 },
{ "type": "Feature", "properties": { "nome":"CDOSE-05"}, "geometry": { "coordinates": [ -51.9697729245062 , -22.8364066412882 ], "type": "Point" }, "id": 90 },
{ "type": "Feature", "properties": { "nome":"UVISE-05"}, "geometry": { "coordinates": [ -51.0927806195239 , -26.2424366988593 ], "type": "Point" }, "id": 91 },
{ "type": "Feature", "properties": { "nome":"UVISE-06"}, "geometry": { "coordinates": [ -51.0783221424824 , -26.243082122236 ], "type": "Point" }, "id": 92 },
{ "type": "Feature", "properties": { "nome":"UVISE-07"}, "geometry": { "coordinates": [ -51.0884400933478 , -26.225982556587 ], "type": "Point" }, "id": 93 },
{ "type": "Feature", "properties": { "nome":"CTOSE-02"}, "geometry": { "coordinates": [ -50.0173134082246 , -24.7881276544245 ], "type": "Point" }, "id": 94 },
{ "type": "Feature", "properties": { "nome":"PINSE-03"}, "geometry": { "coordinates": [ -51.6554613853502 , -25.6943200396047 ], "type": "Point" }, "id": 95 },
{ "type": "Feature", "properties": { "nome":"CTOSE-04"}, "geometry": { "coordinates": [ -49.9933474495524 , -24.7866779804121 ], "type": "Point" }, "id": 96 },
{ "type": "Feature", "properties": { "nome":"XAXSE-03"}, "geometry": { "coordinates": [ -49.246358513132 , -25.5004742087401 ], "type": "Point" }, "id": 97 },
{ "type": "Feature", "properties": { "nome":"XAXSE-05"}, "geometry": { "coordinates": [ -49.2696279586463 , -25.4937308621151 ], "type": "Point" }, "id": 98 },
{ "type": "Feature", "properties": { "nome":"CPOSE-03"}, "geometry": { "coordinates": [ -50.6524882154149 , -23.1802362767828 ], "type": "Point" }, "id": 99 },
{ "type": "Feature", "properties": { "nome":"XAXSE-06"}, "geometry": { "coordinates": [ -49.281306889429 , -25.4896979268545 ], "type": "Point" }, "id": 100 },
{ "type": "Feature", "properties": { "nome":"MCUSE-05"}, "geometry": { "coordinates": [ -52.098921573832 , -23.3413786465867 ], "type": "Point" }, "id": 101 },
{ "type": "Feature", "properties": { "nome":"XAXSE-07"}, "geometry": { "coordinates": [ -49.2610666153776 , -25.5110793580267 ], "type": "Point" }, "id": 102 },
{ "type": "Feature", "properties": { "nome":"XAXSE-08"}, "geometry": { "coordinates": [ -49.2746870892417 , -25.5030803454582 ], "type": "Point" }, "id": 103 },
{ "type": "Feature", "properties": { "nome":"DNASE-02"}, "geometry": { "coordinates": [ -53.2895199522312 , -23.3820634072424 ], "type": "Point" }, "id": 104 },
{ "type": "Feature", "properties": { "nome":"XAXSE-09"}, "geometry": { "coordinates": [ -49.2890658138804 , -25.5037545832464 ], "type": "Point" }, "id": 105 },
{ "type": "Feature", "properties": { "nome":"IBTSE-05"}, "geometry": { "coordinates": [ -50.1879807838475 , -23.8493931420844 ], "type": "Point" }, "id": 106 },
{ "type": "Feature", "properties": { "nome":"PPA-49"}, "geometry": { "coordinates": [ -50.140769937034 , -25.0589725494363 ], "type": "Point" }, "id": 107 },
{ "type": "Feature", "properties": { "nome":"IBTSE-06"}, "geometry": { "coordinates": [ -50.1973261848309 , -23.8477482081025 ], "type": "Point" }, "id": 108 },
{ "type": "Feature", "properties": { "nome":"IGPSE-02"}, "geometry": { "coordinates": [ -51.1826049208207 , -23.3271607143524 ], "type": "Point" }, "id": 109 },
{ "type": "Feature", "properties": { "nome":"FBLUD-08"}, "geometry": { "coordinates": [ -53.0526159098573 , -26.0774320338419 ], "type": "Point" }, "id": 110 },
{ "type": "Feature", "properties": { "nome":"IGPSE-03"}, "geometry": { "coordinates": [ -51.1700130848963 , -23.3369382106538 ], "type": "Point" }, "id": 111 },
{ "type": "Feature", "properties": { "nome":"ENSSE-03"}, "geometry": { "coordinates": [ -53.1617474499612 , -25.9433135741775 ], "type": "Point" }, "id": 112 },
{ "type": "Feature", "properties": { "nome":"TDOSE-06"}, "geometry": { "coordinates": [ -53.7462517857507 , -24.7297428485787 ], "type": "Point" }, "id": 113 },
{ "type": "Feature", "properties": { "nome":"MVASE-04"}, "geometry": { "coordinates": [ -51.79456076124 , -23.4849218310558 ], "type": "Point" }, "id": 114 },
{ "type": "Feature", "properties": { "nome":"TDOSE-08"}, "geometry": { "coordinates": [ -53.7441635322435 , -24.7529503271706 ], "type": "Point" }, "id": 115 },
{ "type": "Feature", "properties": { "nome":"TDOSE-09"}, "geometry": { "coordinates": [ -53.7240255073222 , -24.7408371713305 ], "type": "Point" }, "id": 116 },
{ "type": "Feature", "properties": { "nome":"CVASE-01"}, "geometry": { "coordinates": [ -50.4550395488109 , -24.0398007271633 ], "type": "Point" }, "id": 117 },
{ "type": "Feature", "properties": { "nome":"APASE-03"}, "geometry": { "coordinates": [ -51.4618393681478 , -23.5583491586449 ], "type": "Point" }, "id": 118 },
{ "type": "Feature", "properties": { "nome":"CDASE-01"}, "geometry": { "coordinates": [ -51.3431405748645 , -24.5710719609347 ], "type": "Point" }, "id": 119 },
{ "type": "Feature", "properties": { "nome":"FDCRE-10"}, "geometry": { "coordinates": [ -51.5852019296568 , -25.9113377854804 ], "type": "Point" }, "id": 120 },
{ "type": "Feature", "properties": { "nome":"IBPSE-01"}, "geometry": { "coordinates": [ -51.0980997527468 , -23.2949695191144 ], "type": "Point" }, "id": 121 },
{ "type": "Feature", "properties": { "nome":"TGISE-02"}, "geometry": { "coordinates": [ -50.4112752118928 , -24.5160291909161 ], "type": "Point" }, "id": 122 },
{ "type": "Feature", "properties": { "nome":"CENSE-10"}, "geometry": { "coordinates": [ -49.289779683048 , -25.433572803743 ], "type": "Point" }, "id": 123 },
{ "type": "Feature", "properties": { "nome":"CENSE-11"}, "geometry": { "coordinates": [ -49.277762290622 , -25.4378993002601 ], "type": "Point" }, "id": 124 },
{ "type": "Feature", "properties": { "nome":"CENSE-12"}, "geometry": { "coordinates": [ -49.2772247707674 , -25.4075458903488 ], "type": "Point" }, "id": 125 },
{ "type": "Feature", "properties": { "nome":"CICSE-06"}, "geometry": { "coordinates": [ -49.3288630589673 , -25.5086120111472 ], "type": "Point" }, "id": 126 },
{ "type": "Feature", "properties": { "nome":"CICSE-07"}, "geometry": { "coordinates": [ -49.3031659524466 , -25.5138813313185 ], "type": "Point" }, "id": 127 },
{ "type": "Feature", "properties": { "nome":"CICSE-08"}, "geometry": { "coordinates": [ -49.3423074021525 , -25.4852605902174 ], "type": "Point" }, "id": 128 },
{ "type": "Feature", "properties": { "nome":"UMUUD-01"}, "geometry": { "coordinates": [ -53.3100137749965 , -23.7639437597087 ], "type": "Point" }, "id": 129 },
{ "type": "Feature", "properties": { "nome":"CAMSE-01"}, "geometry": { "coordinates": [ -51.5813579222804 , -23.6005296416952 ], "type": "Point" }, "id": 130 },
{ "type": "Feature", "properties": { "nome":"UMUUD-02"}, "geometry": { "coordinates": [ -53.3114955693451 , -23.751604615535 ], "type": "Point" }, "id": 131 },
{ "type": "Feature", "properties": { "nome":"FLISE-02"}, "geometry": { "coordinates": [ -52.3004858769753 , -23.3206005267617 ], "type": "Point" }, "id": 132 },
{ "type": "Feature", "properties": { "nome":"UMUUD-03"}, "geometry": { "coordinates": [ -53.2887145923283 , -23.7654406511987 ], "type": "Point" }, "id": 133 },
{ "type": "Feature", "properties": { "nome":"ARCSE-03"}, "geometry": { "coordinates": [ -49.3925425624976 , -25.5941500611339 ], "type": "Point" }, "id": 134 },
{ "type": "Feature", "properties": { "nome":"ARCSE-04"}, "geometry": { "coordinates": [ -49.3984086516514 , -25.5774000655584 ], "type": "Point" }, "id": 135 },
{ "type": "Feature", "properties": { "nome":"QTOSE-02"}, "geometry": { "coordinates": [ -53.9755108346114 , -24.5725519896908 ], "type": "Point" }, "id": 136 },
{ "type": "Feature", "properties": { "nome":"ITLAG-02"}, "geometry": { "coordinates": [ -54.2986158720983 , -25.1398964580631 ], "type": "Point" }, "id": 137 },
{ "type": "Feature", "properties": { "nome":"MGASE-01"}, "geometry": { "coordinates": [ -51.9969320866145 , -23.4684482648474 ], "type": "Point" }, "id": 138 },
{ "type": "Feature", "properties": { "nome":"APESE-05"}, "geometry": { "coordinates": [ -49.188094563357 , -25.5336203034951 ], "type": "Point" }, "id": 139 },
{ "type": "Feature", "properties": { "nome":"APESE-06"}, "geometry": { "coordinates": [ -49.2063521140552 , -25.5283645278043 ], "type": "Point" }, "id": 140 },
{ "type": "Feature", "properties": { "nome":"APESE-07"}, "geometry": { "coordinates": [ -49.168409709068 , -25.5065429618562 ], "type": "Point" }, "id": 141 },
{ "type": "Feature", "properties": { "nome":"APESE-08"}, "geometry": { "coordinates": [ -49.1929993704983 , -25.5479882192968 ], "type": "Point" }, "id": 142 },
{ "type": "Feature", "properties": { "nome":"APESE-09"}, "geometry": { "coordinates": [ -49.1864590437343 , -25.5070478769308 ], "type": "Point" }, "id": 143 },
{ "type": "Feature", "properties": { "nome":"PHOSE-07"}, "geometry": { "coordinates": [ -49.2831145129264 , -25.5199520109891 ], "type": "Point" }, "id": 144 },
{ "type": "Feature", "properties": { "nome":"JALSE-07"}, "geometry": { "coordinates": [ -51.9300693566077 , -23.4024641905316 ], "type": "Point" }, "id": 145 },
{ "type": "Feature", "properties": { "nome":"PHOSE-08"}, "geometry": { "coordinates": [ -49.2905886325214 , -25.532959863892 ], "type": "Point" }, "id": 146 },
{ "type": "Feature", "properties": { "nome":"MCRSE-07"}, "geometry": { "coordinates": [ -54.0546940309689 , -24.5517638835888 ], "type": "Point" }, "id": 147 },
{ "type": "Feature", "properties": { "nome":"MERSE-02"}, "geometry": { "coordinates": [ -54.1654656800734 , -24.4536623467206 ], "type": "Point" }, "id": 148 },
{ "type": "Feature", "properties": { "nome":"CICSE-13"}, "geometry": { "coordinates": [ -49.3010712241946 , -25.5529243391795 ], "type": "Point" }, "id": 149 },
{ "type": "Feature", "properties": { "nome":"JALSE-09"}, "geometry": { "coordinates": [ -51.8970591291029 , -23.3689703811206 ], "type": "Point" }, "id": 150 },
{ "type": "Feature", "properties": { "nome":"CMOUD-01"}, "geometry": { "coordinates": [ -52.3795709718702 , -24.0399131221061 ], "type": "Point" }, "id": 151 },
{ "type": "Feature", "properties": { "nome":"TMASE-10"}, "geometry": { "coordinates": [ -49.2074918323181 , -25.4559185800236 ], "type": "Point" }, "id": 152 },
{ "type": "Feature", "properties": { "nome":"SQCSE-03"}, "geometry": { "coordinates": [ -49.8325128356516 , -23.6867115312119 ], "type": "Point" }, "id": 153 },
{ "type": "Feature", "properties": { "nome":"CMOUD-02"}, "geometry": { "coordinates": [ -52.4020792370008 , -24.0489050970688 ], "type": "Point" }, "id": 154 },
{ "type": "Feature", "properties": { "nome":"TMASE-11"}, "geometry": { "coordinates": [ -49.2195260573302 , -25.4485227458948 ], "type": "Point" }, "id": 155 },
{ "type": "Feature", "properties": { "nome":"RIPSE-02"}, "geometry": { "coordinates": [ -50.3611045629486 , -23.4050229302409 ], "type": "Point" }, "id": 156 },
{ "type": "Feature", "properties": { "nome":"TMASE-12"}, "geometry": { "coordinates": [ -49.1846593457759 , -25.4241943094735 ], "type": "Point" }, "id": 157 },
{ "type": "Feature", "properties": { "nome":"TMASE-13"}, "geometry": { "coordinates": [ -49.1786165443522 , -25.4454466164175 ], "type": "Point" }, "id": 158 },
{ "type": "Feature", "properties": { "nome":"PGN-01"}, "geometry": { "coordinates": [ -50.1309201973526 , -25.0451414077832 ], "type": "Point" }, "id": 159 },
{ "type": "Feature", "properties": { "nome":"IVTPP-02"}, "geometry": { "coordinates": [ -52.2213934348664 , -23.6214905727789 ], "type": "Point" }, "id": 160 },
{ "type": "Feature", "properties": { "nome":"BTESE-09"}, "geometry": { "coordinates": [ -49.2776014282482 , -25.4644225647872 ], "type": "Point" }, "id": 161 },
{ "type": "Feature", "properties": { "nome":"JALSE-12"}, "geometry": { "coordinates": [ -51.9388127143895 , -23.3846760270061 ], "type": "Point" }, "id": 162 },
{ "type": "Feature", "properties": { "nome":"JALSE-13"}, "geometry": { "coordinates": [ -51.8995867892566 , -23.4001353810146 ], "type": "Point" }, "id": 163 },
{ "type": "Feature", "properties": { "nome":"COS-12"}, "geometry": { "coordinates": [ -49.2908821483154 , -25.4148031421836 ], "type": "Point" }, "id": 164 },
{ "type": "Feature", "properties": { "nome":"JALSE-14"}, "geometry": { "coordinates": [ -51.9134606029972 , -23.4084161357209 ], "type": "Point" }, "id": 165 },
{ "type": "Feature", "properties": { "nome":"JALSE-15"}, "geometry": { "coordinates": [ -51.8962633104337 , -23.4218111511337 ], "type": "Point" }, "id": 166 },
{ "type": "Feature", "properties": { "nome":"RESSE-01"}, "geometry": { "coordinates": [ -50.8509587853443 , -24.6519196288183 ], "type": "Point" }, "id": 167 },
{ "type": "Feature", "properties": { "nome":"PDUSE-04"}, "geometry": { "coordinates": [ -52.0513197447824 , -23.4584388487789 ], "type": "Point" }, "id": 168 },
{ "type": "Feature", "properties": { "nome":"TELUD-05"}, "geometry": { "coordinates": [ -50.6203290568259 , -24.3233975665061 ], "type": "Point" }, "id": 169 },
{ "type": "Feature", "properties": { "nome":"QSLAG-02"}, "geometry": { "coordinates": [ -52.1337552850458 , -23.8487751094635 ], "type": "Point" }, "id": 170 },
{ "type": "Feature", "properties": { "nome":"TELUD-06"}, "geometry": { "coordinates": [ -50.6244124282801 , -24.3340401366098 ], "type": "Point" }, "id": 171 },
{ "type": "Feature", "properties": { "nome":"TELUD-07"}, "geometry": { "coordinates": [ -50.637993146865 , -24.3214576924854 ], "type": "Point" }, "id": 172 },
{ "type": "Feature", "properties": { "nome":"ONASE-02"}, "geometry": { "coordinates": [ -52.1947413877654 , -23.4039172776787 ], "type": "Point" }, "id": 173 },
{ "type": "Feature", "properties": { "nome":"SRCSE-01"}, "geometry": { "coordinates": [ -49.2530483397786 , -25.5226361967567 ], "type": "Point" }, "id": 174 },
{ "type": "Feature", "properties": { "nome":"JETSE-03"}, "geometry": { "coordinates": [ -52.9190555195354 , -25.7091228144453 ], "type": "Point" }, "id": 175 },
{ "type": "Feature", "properties": { "nome":"SRCSE-02"}, "geometry": { "coordinates": [ -49.2424899031833 , -25.5372776889238 ], "type": "Point" }, "id": 176 },
{ "type": "Feature", "properties": { "nome":"FDCRE-06"}, "geometry": { "coordinates": [ -51.6239051954487 , -25.976941453629 ], "type": "Point" }, "id": 177 },
{ "type": "Feature", "properties": { "nome":"SRCSE-03"}, "geometry": { "coordinates": [ -49.2829563695575 , -25.5463681556623 ], "type": "Point" }, "id": 178 },
{ "type": "Feature", "properties": { "nome":"SRCSE-04"}, "geometry": { "coordinates": [ -49.2662902407266 , -25.5490674878016 ], "type": "Point" }, "id": 179 },
{ "type": "Feature", "properties": { "nome":"FDCRE-08"}, "geometry": { "coordinates": [ -51.5985562182065 , -25.9062161433423 ], "type": "Point" }, "id": 180 },
{ "type": "Feature", "properties": { "nome":"SRCSE-05"}, "geometry": { "coordinates": [ -49.265675838405 , -25.5363393518936 ], "type": "Point" }, "id": 181 },
{ "type": "Feature", "properties": { "nome":"FALSE-03"}, "geometry": { "coordinates": [ -53.8463122223928 , -24.0695873462566 ], "type": "Point" }, "id": 182 },
{ "type": "Feature", "properties": { "nome":"CNASE-01"}, "geometry": { "coordinates": [ -50.5497029831298 , -23.5535985511762 ], "type": "Point" }, "id": 183 },
{ "type": "Feature", "properties": { "nome":"BTESE-10"}, "geometry": { "coordinates": [ -49.2948346731008 , -25.4613751846532 ], "type": "Point" }, "id": 184 },
{ "type": "Feature", "properties": { "nome":"FDCRE-09"}, "geometry": { "coordinates": [ -51.5903624715538 , -25.9045134124295 ], "type": "Point" }, "id": 185 },
{ "type": "Feature", "properties": { "nome":"SRCSE-06"}, "geometry": { "coordinates": [ -49.2542509591128 , -25.5412857841092 ], "type": "Point" }, "id": 186 },
{ "type": "Feature", "properties": { "nome":"BTESE-11"}, "geometry": { "coordinates": [ -49.2832956764953 , -25.4448091661037 ], "type": "Point" }, "id": 187 },
{ "type": "Feature", "properties": { "nome":"PRTSE-05"}, "geometry": { "coordinates": [ -54.5686783216535 , -25.5008249972653 ], "type": "Point" }, "id": 188 },
{ "type": "Feature", "properties": { "nome":"BTESE-12"}, "geometry": { "coordinates": [ -49.2625357935302 , -25.45730029795 ], "type": "Point" }, "id": 189 },
{ "type": "Feature", "properties": { "nome":"SDL-07"}, "geometry": { "coordinates": [ -49.3023176574967 , -25.4822013367135 ], "type": "Point" }, "id": 190 },
{ "type": "Feature", "properties": { "nome":"SBRSE-05"}, "geometry": { "coordinates": [ -50.2068736300442 , -25.1115273931284 ], "type": "Point" }, "id": 191 },
{ "type": "Feature", "properties": { "nome":"SDL-08"}, "geometry": { "coordinates": [ -49.3319188836965 , -25.4557769715354 ], "type": "Point" }, "id": 192 },
{ "type": "Feature", "properties": { "nome":"PRTSE-07"}, "geometry": { "coordinates": [ -54.5443064027864 , -25.498541184632 ], "type": "Point" }, "id": 193 },
{ "type": "Feature", "properties": { "nome":"SDL-09"}, "geometry": { "coordinates": [ -49.3245796249795 , -25.4773822143639 ], "type": "Point" }, "id": 194 },
{ "type": "Feature", "properties": { "nome":"PRTSE-08"}, "geometry": { "coordinates": [ -54.5626649759838 , -25.4850506660589 ], "type": "Point" }, "id": 195 },
{ "type": "Feature", "properties": { "nome":"DCASE-02"}, "geometry": { "coordinates": [ -52.2208462111932 , -23.5539986207513 ], "type": "Point" }, "id": 196 },
{ "type": "Feature", "properties": { "nome":"SPISE-02"}, "geometry": { "coordinates": [ -51.8567756615723 , -23.8686680153398 ], "type": "Point" }, "id": 197 },
{ "type": "Feature", "properties": { "nome":"LAPSE-05"}, "geometry": { "coordinates": [ -49.7220559284913 , -25.7657894125285 ], "type": "Point" }, "id": 198 },
{ "type": "Feature", "properties": { "nome":"SGDRE-04"}, "geometry": { "coordinates": [ -52.0931879761278 , -25.7958073511962 ], "type": "Point" }, "id": 199 },
{ "type": "Feature", "properties": { "nome":"PVISE-06"}, "geometry": { "coordinates": [ -52.4652581790019 , -23.0959359023727 ], "type": "Point" }, "id": 200 },
{ "type": "Feature", "properties": { "nome":"PVISE-07"}, "geometry": { "coordinates": [ -52.4669358457263 , -23.0870767065117 ], "type": "Point" }, "id": 201 },
{ "type": "Feature", "properties": { "nome":"IBEAG-01"}, "geometry": { "coordinates": [ -51.9919500173347 , -23.6577558889647 ], "type": "Point" }, "id": 202 },
{ "type": "Feature", "properties": { "nome":"JAMSE-01"}, "geometry": { "coordinates": [ -49.2228844637854 , -25.4684900437568 ], "type": "Point" }, "id": 203 },
{ "type": "Feature", "properties": { "nome":"IRTSE-05"}, "geometry": { "coordinates": [ -50.6539802147029 , -25.4745173265486 ], "type": "Point" }, "id": 204 },
{ "type": "Feature", "properties": { "nome":"NSRSE-03"}, "geometry": { "coordinates": [ -53.9524625663849 , -24.4673052288217 ], "type": "Point" }, "id": 205 },
{ "type": "Feature", "properties": { "nome":"MEDSE-06"}, "geometry": { "coordinates": [ -54.0919390022616 , -25.2973580281039 ], "type": "Point" }, "id": 206 },
{ "type": "Feature", "properties": { "nome":"PQRSE-01"}, "geometry": { "coordinates": [ -49.0383349388791 , -25.4376981815784 ], "type": "Point" }, "id": 207 },
{ "type": "Feature", "properties": { "nome":"IGUPP-02"}, "geometry": { "coordinates": [ -51.8214931608869 , -23.2029389781924 ], "type": "Point" }, "id": 208 },
{ "type": "Feature", "properties": { "nome":"PHSSE-05"}, "geometry": { "coordinates": [ -53.4503828827766 , -24.9289287561529 ], "type": "Point" }, "id": 209 },
{ "type": "Feature", "properties": { "nome":"PQRSE-02"}, "geometry": { "coordinates": [ -49.0166990795116 , -25.4505696070407 ], "type": "Point" }, "id": 210 },
{ "type": "Feature", "properties": { "nome":"CENSE-07"}, "geometry": { "coordinates": [ -49.2864706624719 , -25.4378779608749 ], "type": "Point" }, "id": 211 },
{ "type": "Feature", "properties": { "nome":"PQRSE-03"}, "geometry": { "coordinates": [ -49.1129596393314 , -25.4489101726479 ], "type": "Point" }, "id": 212 },
{ "type": "Feature", "properties": { "nome":"TMASE-08"}, "geometry": { "coordinates": [ -49.2186068977895 , -25.4361648394077 ], "type": "Point" }, "id": 213 },
{ "type": "Feature", "properties": { "nome":"FRASE-02"}, "geometry": { "coordinates": [ -50.4065789237144 , -23.8453095997432 ], "type": "Point" }, "id": 214 },
{ "type": "Feature", "properties": { "nome":"TMASE-09"}, "geometry": { "coordinates": [ -49.1968075311615 , -25.4590213876364 ], "type": "Point" }, "id": 215 }
] }